[
  {
    "title": "Inception",
    "locations": [
      { "name": "Pont de Bir-Hakeim", "lat": 48.85565, "lng": 2.287592, "imageUrl": "https://m.blog.hu/fi/filmbook/image/IkeClanton/ja6ud.jpg" }
    ]
  },
  {
    "title": "Midnight in Paris",
    "locations": [
      { "name": "Church of Saint-Étienne du Mont", "lat": 48.846222, "lng": 2.346414, "imageUrl": "https://m.blog.hu/fi/filmbook/image/IkeClanton/ja6ud.jpg"  }
    ]
  },
  {
    "title": "Amélie",
    "locations": [
      { "name": "Canal Saint-Martin", "lat": 48.871531, "lng": 2.366656, "imageUrl": "https://m.blog.hu/fi/filmbook/image/IkeClanton/ja6ud.jpg"  }
    ]
  },
  {
    "title": "Mission: Impossible - Ghost Protocol",
    "locations": [
      { "name": "Budapest Opera House", "lat": 47.502881, "lng": 19.058072, "imageUrl": "https://m.blog.hu/fi/filmbook/image/IkeClanton/ja6ud.jpg"  }
    ]
  },
  {
    "title": "Spectre",
    "locations": [
      { "name": "Westminster Bridge", "lat": 51.500864, "lng": -0.121964, "imageUrl": "https://m.blog.hu/fi/filmbook/image/IkeClanton/ja6ud.jpg"  }
    ]
  },
  {
    "title": "The Dark Knight Rises",
    "locations": [
      { "name": "Trump Tower", "lat": 40.7625, "lng": -73.974167, "imageUrl": "https://m.blog.hu/fi/filmbook/image/IkeClanton/ja6ud.jpg"  }
    ]
  },
  {
    "title": "Blade Runner 2049",
    "locations": [
      { "name": "Kossuth Lajos Square", "lat": 47.507121, "lng": 19.045669, "imageUrl": "https://m.blog.hu/fi/filmbook/image/IkeClanton/ja6ud.jpg"  }
    ]
  },
  {
    "title": "Before Sunset",
    "locations": [
      { "name": "Le Pure Café", "lat": 48.853926, "lng": 2.379853, "imageUrl": "https://m.blog.hu/fi/filmbook/image/IkeClanton/ja6ud.jpg"  }
    ]
  },
  {
    "title": "The Imitation Game",
    "locations": [
      { "name": "King's Cross Station", "lat": 51.5314, "lng": -0.124, "imageUrl": "https://m.blog.hu/fi/filmbook/image/IkeClanton/ja6ud.jpg"  }
    ]
  },
  {
    "title": "The Avengers",
    "locations": [
      { "name": "Central Park", "lat": 40.782865, "lng": -73.965355, "imageUrl": "https://m.blog.hu/fi/filmbook/image/IkeClanton/ja6ud.jpg"  }
    ]
  },
  {
    "title": "Tinker Tailor Soldier Spy",
    "locations": [
      { "name": "Buda Castle", "lat": 47.4969, "lng": 19.0399, "imageUrl": "https://m.blog.hu/fi/filmbook/image/IkeClanton/ja6ud.jpg"  }
    ]
  },
  {
    "title": "Moulin Rouge!",
    "locations": [
      { "name": "Montmartre", "lat": 48.886704, "lng": 2.343104, "imageUrl": "https://m.blog.hu/fi/filmbook/image/IkeClanton/ja6ud.jpg"  }
    ]
  },
  {
    "title": "Skyfall",
    "locations": [
      { "name": "Canary Wharf", "lat": 51.5036, "lng": -0.0183, "imageUrl": "https://m.blog.hu/fi/filmbook/image/IkeClanton/ja6ud.jpg"  }
    ]
  },
  {
    "title": "Spider-Man: Homecoming",
    "locations": [
      { "name": "Queens, New York", "lat": 40.728224, "lng": -73.794852, "imageUrl": "https://m.blog.hu/fi/filmbook/image/IkeClanton/ja6ud.jpg"  }
    ]
  },
  {
    "title": "An American in Paris",
    "locations": [
      { "name": "River Seine", "lat": 48.858844, "lng": 2.294351, "imageUrl": "https://m.blog.hu/fi/filmbook/image/IkeClanton/ja6ud.jpg"  }
    ]
  },
  {
    "title": "Red Sparrow",
    "locations": [
      { "name": "Dohány Street Synagogue", "lat": 47.4942, "lng": 19.0613, "imageUrl": "https://m.blog.hu/fi/filmbook/image/IkeClanton/ja6ud.jpg"  }
    ]
  },
  {
    "title": "Sherlock Holmes",
    "locations": [
      { "name": "St Paul's Cathedral", "lat": 51.513845, "lng": -0.098351, "imageUrl": "https://m.blog.hu/fi/filmbook/image/IkeClanton/ja6ud.jpg"  }
    ]
  },
  {
    "title": "The Devil Wears Prada",
    "locations": [
      { "name": "Times Square", "lat": 40.758896, "lng": -73.985130, "imageUrl": "https://m.blog.hu/fi/filmbook/image/IkeClanton/ja6ud.jpg"  }
    ]
  },
  {
    "title": "Julie & Julia",
    "locations": [
      { "name": "Rue de l'Université", "lat": 48.859, "lng": 2.303, "imageUrl": "https://m.blog.hu/fi/filmbook/image/IkeClanton/ja6ud.jpg"  }
    ]
  },
  {
    "title": "Fantastic Beasts and Where to Find Them",
    "locations": [
      { "name": "Bank of England", "lat": 51.5142, "lng": -0.0876, "imageUrl": "https://m.blog.hu/fi/filmbook/image/IkeClanton/ja6ud.jpg"  }
    ]
  }
]
