[
  {
    "title": "Inception",
    "locations": [
      {
        "name": "Pont de Bir-Hakeim",
        "lat": 48.85565,
        "lng": 2.287592,
        "imageUrl": "https://www.sceen-it.com/Service/sceenit/sceen/medium/5023.jpg/nos/.jpg",
        "locationImg": "https://www.parisinsidersguide.com/image-files/pont-de-bir-hakeim-eiffel-tower-gyg-800-2x1.jpg"
      }
    ]
  },
  {
    "title": "Midnight in Paris",
    "locations": [
      {
        "name": "Church of Saint-Étienne du Mont",
        "lat": 48.846222,
        "lng": 2.346414,
        "imageUrl": "https://www.sceen-it.com/storage/2404?fsid=2404&w=600&md5=8273CFA08EDB4428A6D5A7F8268F1FFB",
        "locationImg": "https://cdn.sortiraparis.com/images/80/103124/939948-visuels-eglises-eglise-saint-etienne-du-mont.jpg"
      }
    ]
  },
  {
    "title": "Amélie",
    "locations": [
      {
        "name": "Canal Saint-Martin",
        "lat": 48.871531,
        "lng": 2.366656,
        "imageUrl": "https://www.sceen-it.com/storage/20459?fsid=20459&w=600&md5=192B1B0E2A46627FE12E9DB65C405BEB",
        "locationImg": "https://www.parisinsidersguide.com/image-files/canal-saint-martin-bridge-123rf-800-2x1.jpg"
      }
    ]
  },
  {
    "title": "Mission: Impossible - Ghost Protocol",
    "locations": [
      {
        "name": "Budapest Opera House",
        "lat": 47.502881,
        "lng": 19.058072,
        "imageUrl": "https://www.budapestreporter.com/wp-content/uploads/2022/05/mission-impossible-ghost-protocol-budapestreporter-2022-05-27_735222.png",
        "locationImg": "https://upload.wikimedia.org/wikipedia/commons/thumb/6/6e/Hungarian_State_Opera_House%28PDXdj%29.jpg/640px-Hungarian_State_Opera_House%28PDXdj%29.jpg"
      }
    ]
  },
  {
    "title": "Spectre",
    "locations": [
      {
        "name": "Westminster Bridge",
        "lat": 51.500864,
        "lng": -0.121964,
        "imageUrl": "https://www.sceen-it.com/Service/sceenit/sceen/medium/1808.jpg/nos/.jpg",
        "locationImg": "https://www.londonxlondon.com/wp-content/uploads/2022/03/Westminster_Bridge_shutterstock_1897671799.jpg"
      }
    ]
  },
  {
    "title": "The Dark Knight Rises",
    "locations": [
      {
        "name": "Trump Tower",
        "lat": 40.7625,
        "lng": -73.974167,
        "imageUrl": "https://nypost.com/wp-content/uploads/sites/2/2013/08/tdkr1-768x949.jpg?quality=80&strip=all&w=477",
        "locationImg": "https://live.staticflickr.com/334/18812200242_f50a4f2f01_b.jpg"
      }
    ]
  },
  {
    "title": "Blade Runner 2049",
    "locations": [
      {
        "name": "Kossuth Lajos Square",
        "lat": 47.507121,
        "lng": 19.045669,
        "imageUrl": "https://www.sceen-it.com/Service/sceenit/sceen/medium/29767.jpg/nos/.jpg",
        "locationImg": "https://i.szalas.hu/pois/8671/original/32187.jpg"
      }
    ]
  },
  {
    "title": "Before Sunset",
    "locations": [
      {
        "name": "Le Pure Café",
        "lat": 48.853926,
        "lng": 2.379853,
        "imageUrl": "https://medias.spotern.com/spots/w640/75/75455-1532336916.jpg",
        "locationImg": "https://www.urbansider.com/wp-content/uploads/Categories/Restaurants/paris-purecafe-DSCF5322-2-1.jpg"
      }
    ]
  },
  {
    "title": "The Imitation Game",
    "locations": [
      {
        "name": "King's Cross Station",
        "lat": 51.5314,
        "lng": -0.124,
        "imageUrl": "https://railwaymoviedatabase.com/wp-content/uploads/2020/04/image-287-1024x435.png",
        "locationImg": "https://assets.londonist.com/uploads/2020/01/i875/kingsxstation.jpg"
      }
    ]
  },
  {
    "title": "The Avengers",
    "locations": [
      {
        "name": "Central Park",
        "lat": 40.782865,
        "lng": -73.965355,
        "imageUrl": "https://static.wikia.nocookie.net/marvelcinematicuniverse/images/1/12/Central_Park_2.png/revision/latest?cb=20141202042021",
        "locationImg": "https://s3.amazonaws.com/assets.centralparknyc.org/media/images/locations/_1650x767_crop_center-center_none/Bethesda-Terrace-July-2018_0007.jpg"
      }
    ]
  },
  {
    "title": "Tinker Tailor Soldier Spy",
    "locations": [
      {
        "name": "Buda Castle",
        "lat": 47.4969,
        "lng": 19.0399,
        "imageUrl": "https://www.budapestreporter.com/wp-content/uploads/2020/10/tinker-tailor.jpg",
        "locationImg": "https://www.ulysses.travel/wp-content/uploads/2020/06/Palais-de-Budava%CC%81r-Cha%CC%82teau-de-Buda-Budapest.jpg"
      }
    ]
  },
  {
    "title": "Moulin Rouge!",
    "locations": [
      {
        "name": "Moulin Rouge",
        "lat": 48.884129,
        "lng": 2.332400,
        "imageUrl": "https://tilt.goombastomp.com/wp-content/uploads/2021/05/Moulin-Rouge.jpg",
        "locationImg": "https://www.szalljonmeg.hu/media/cache/slider_full/uploads/images/eb29168d04e82ccf630f8d764e7f63a87970277c.jpeg"
      }
    ]
  },
  {
    "title": "Skyfall",
    "locations": [
      {
        "name": "Canary Wharf",
        "lat": 51.5036,
        "lng": -0.0183,
        "imageUrl": "https://2.bp.blogspot.com/-oBDNgyta7aE/VesCXZDj4SI/AAAAAAAAOjg/ZGlwq2cNgTU/s1600/DSC03840.JPG",
        "locationImg": "https://www.galliardhomes.com/sites/default/files/images/properties//Fs5GiuvLVYZ.jpg"
      }
    ]
  },
  {
    "title": "Spider-Man: Homecoming",
    "locations": [
      {
        "name": "Queens, New York",
        "lat": 40.728224,
        "lng": -73.794852,
        "imageUrl": "https://awsimages.detik.net.id/community/media/visual/2017/06/05/7ffc53dd-84a1-49b1-8b8e-96677e9efc35_169.jpg?w=600&q=90",
        "locationImg": "https://cdn.cityandstateny.com/media/img/cd/2023/05/19/GettyImages_1214361919/860x394.jpg"
      }
    ]
  },
  {
    "title": "A View to a Kill",
    "locations": [
      {
        "name": "Eiffel Tower",
        "lat": 48.858844,
        "lng": 2.294351,
        "imageUrl": "https://i.ytimg.com/vi/dq601ztZ4mQ/maxresdefault.jpg",
        "locationImg": "https://cdn.sortiraparis.com/images/80/1467/830095-le-reveillon-2022-du-nouvel-an-2023-sur-la-tour-eiffel-chez-madame-brasserie.jpg"
      }
    ]
  },
  {
    "title": "Red Sparrow",
    "locations": [
      {
        "name": "Dohány Street Synagogue",
        "lat": 47.4942,
        "lng": 19.0613,
        "imageUrl": "https://blogger.googleusercontent.com/img/b/R29vZ2xl/AVvXsEjvKDJ4nWHfTUHXTvxrxcSNHYIQNUNmKGNx_1gHZotZsjiLN2DKzQ1iQsMf2mCF7PRxmtnAzMrHvR8AjXjWPMNsQHE50CNZOCjRc31_IMIsWDahsvOxNdKLbxOE7FCVYw27_zY8TS9gxaRSQCSfd8TS2GAqj7spiROUWVgew4hh9iz9WQ/s1600/0.jpg",
        "locationImg": "https://afar.brightspotcdn.com/dims4/default/539918f/2147483647/strip/true/crop/728x500+36+0/resize/660x453!/quality/90/?url=https%3A%2F%2Fafar-media-production-web.s3.us-west-2.amazonaws.com%2Fbrightspot%2F0a%2F25%2F39a52227983ec95ee409050557ba%2Foriginal-53d4075ae6d3bcbedd4266a60cda632b.jpg"
      }
    ]
  },
  {
    "title": "The Devil Wears Prada",
    "locations": [
      {
        "name": "Times Square",
        "lat": 40.758896,
        "lng": -73.98513,
        "imageUrl": "https://m.media-amazon.com/images/M/MV5BMjc0MTY2YWItN2YzNC00ZDJiLWJjZDQtNmM4MjkyZGQwOTg5XkEyXkFqcGdeQXVyOTc5MDI5NjE@._V1_.jpg",
        "locationImg": "https://www.tripsavvy.com/thmb/l2yYOIdxb4XFsXdt-Sr3F36bBeQ=/1500x0/filters:no_upscale():max_bytes(150000):strip_icc()/times-square-at-dusk-534858417-59b71eae798a49c4838c1507ec6bbffb.jpg"
      }
    ]
  },
  {
    "title": "Julie & Julia",
    "locations": [
      {
        "name": "Rue de l'Université",
        "lat": 48.859,
        "lng": 2.303,
        "imageUrl": "https://okinawaassault.files.wordpress.com/2010/07/vlcsnap-93296.png?w=584",
        "locationImg": "https://www.parisperfect.com/blog/wp-content/uploads/2021/01/eiffel-tower-views-7th-arrondissement-rue-universite.jpg"
      }
    ]
  },
  {
    "title": "Fantastic Beasts and Where to Find Them",
    "locations": [
      {
        "name": "Bank of England",
        "lat": 51.5142,
        "lng": -0.0876,
        "imageUrl": "https://i2-prod.mirror.co.uk/incoming/article9301947.ece/ALTERNATES/s1200d/PAY-FANTASTIC-BEASTS-AND-WHERE-TO-FIND-THEMS-REAL-LIFE-LOCATIONS-REVEALED.jpg",
        "locationImg": "https://www.bankofbritish.com/wp-content/uploads/2021/01/where-is-bank-of-england.jpg"
      }
    ]
  }
]